,Name,Country,Real Lat,Real Long,Max temp,Humidity,Cloudiness,Wind Speed,Date Rec
0,goundam,ml,16.41,-3.67,83.46,14.0,0.0,6.08,1603847433
1,praia da vitoria,pt,38.73,-27.07,62.6,72.0,75.0,5.93,1603847434
2,oboyan,ru,51.21,36.28,39.2,80.0,0.0,11.18,1603847436
3,alofi,nu,-19.06,-169.92,78.8,69.0,40.0,19.46,1603847287
5,uyemskiy,ru,64.47,40.85,44.6,93.0,90.0,6.71,1603847439
6,khatanga,ru,71.97,102.5,-6.11,90.0,48.0,10.27,1603847295
7,aklavik,ca,68.22,-135.01,12.2,85.0,75.0,2.24,1603847275
8,butaritari,ki,3.07,172.79,81.0,65.0,44.0,3.02,1603847229
9,caravelas,br,-17.71,-39.25,77.18,90.0,100.0,10.54,1603847311
10,salalah,om,17.02,54.09,77.0,53.0,20.0,2.24,1603847226
11,hermanus,za,-34.42,19.23,59.0,92.0,100.0,1.99,1603847234
12,tabuk,sa,17.42,121.44,81.59,74.0,100.0,2.24,1603847241
13,talnakh,ru,69.49,88.4,-4.41,81.0,0.0,5.3,1603847248
14,hithadhoo,mv,-0.6,73.08,83.93,66.0,85.0,11.01,1603847224
15,itapirapua,br,-15.82,-50.61,76.57,82.0,100.0,1.83,1603847450
16,vaini,to,-21.2,-175.2,77.0,73.0,20.0,12.75,1603847236
17,lensk,ru,60.73,114.93,15.96,92.0,0.0,2.39,1603847452
18,srivardhan,in,18.03,73.02,77.45,76.0,0.0,5.14,1603847453
19,rancho veloz,cu,22.88,-80.39,78.8,94.0,40.0,8.05,1603847454
20,bafia,cm,4.75,11.23,68.67,92.0,54.0,1.81,1603847455
21,pecos,us,31.42,-103.49,30.2,92.0,90.0,10.29,1603847456
22,punta arenas,cl,-53.15,-70.92,44.6,65.0,0.0,27.51,1603846933
23,lebu,cl,-37.62,-73.65,50.83,84.0,100.0,11.36,1603847224
24,meadow lake,ca,34.8,-106.54,33.8,64.0,90.0,4.7,1603847260
25,bathsheba,bb,13.22,-59.52,80.6,88.0,40.0,21.92,1603847238
26,port elizabeth,za,-33.92,25.57,62.6,82.0,0.0,19.46,1603847233
29,bluff,nz,-46.6,168.33,57.99,70.0,26.0,7.0,1603847222
30,kristiansund,no,63.11,7.73,42.8,75.0,80.0,9.17,1603847466
31,cape town,za,-33.93,18.42,64.0,87.0,75.0,10.29,1603847229
32,carnarvon,au,-24.87,113.63,71.6,68.0,0.0,24.16,1603847221
33,saint-georges,gf,12.06,-61.75,78.8,94.0,20.0,5.82,1603847469
34,kununurra,au,-15.77,128.73,89.6,55.0,98.0,4.7,1603847470
36,sanmenxia,cn,34.77,111.18,52.38,78.0,100.0,3.74,1603847472
37,hobyo,so,5.35,48.53,78.93,79.0,2.0,5.26,1603847473
38,saint-philippe,re,-21.36,55.77,69.8,64.0,0.0,3.36,1603847236
39,busselton,au,-33.65,115.33,62.01,75.0,0.0,7.0,1603847294
40,dikson,ru,73.51,80.55,5.61,95.0,100.0,16.98,1603847231
41,pastos bons,br,-6.6,-44.08,74.84,76.0,100.0,1.34,1603847478
42,ribeira grande,pt,38.52,-28.7,62.82,60.0,100.0,3.58,1603847242
43,chateauroux,fr,46.82,1.7,55.4,93.0,90.0,17.22,1603847480
45,plyussa,ru,58.43,29.37,51.33,87.0,100.0,11.39,1603847482
46,svetlyy,ru,54.67,20.13,46.4,93.0,0.0,6.71,1603847259
47,mar del plata,ar,-38.0,-57.56,59.0,87.0,0.0,6.93,1603847134
48,iracoubo,gf,5.48,-53.2,80.96,79.0,6.0,10.0,1603847485
49,yellowknife,ca,62.46,-114.35,17.6,67.0,75.0,4.7,1603847246
50,ostrowiec swietokrzyski,pl,50.93,21.39,50.0,92.0,10.0,2.51,1603847487
51,rikitea,pf,-23.12,-134.97,75.6,83.0,100.0,16.42,1603847232
53,bengkulu,id,-3.8,102.27,81.0,71.0,93.0,2.26,1603847238
54,rocha,uy,-34.48,-54.33,57.94,92.0,100.0,10.42,1603847246
55,tuktoyaktuk,ca,69.45,-133.04,12.2,92.0,90.0,12.75,1603847221
57,puerto ayora,ec,-0.74,-90.35,68.0,92.0,100.0,4.0,1603847231
58,rantepao,id,-2.97,119.9,79.07,62.0,100.0,2.13,1603847496
59,avarua,ck,-21.21,-159.78,73.4,78.0,100.0,6.93,1603847227
60,ayorou,ne,14.73,0.92,81.66,14.0,0.0,6.69,1603847498
61,east london,za,-33.02,27.91,67.82,74.0,18.0,17.92,1603847041
62,lasa,cn,46.62,10.7,41.0,100.0,44.0,2.71,1603847273
63,biak,id,-0.91,122.88,83.98,64.0,76.0,4.16,1603847277
64,el tambo,co,1.42,-77.4,54.75,100.0,100.0,0.58,1603847502
65,maryville,us,35.76,-83.97,69.8,83.0,90.0,1.52,1603847370
66,chipinge,zw,-20.19,32.62,59.4,80.0,0.0,4.92,1603847472
67,bilma,ne,18.69,12.92,68.05,25.0,0.0,3.31,1603847252
68,san quintin,mx,30.48,-115.95,65.62,44.0,0.0,6.98,1603847276
69,kodiak,us,57.79,-152.41,44.6,56.0,1.0,21.92,1603847227
70,general pico,ar,-35.66,-63.76,61.59,48.0,8.0,12.41,1603847354
71,ustynivka,ua,47.96,32.54,42.8,81.0,0.0,4.47,1603847510
73,new norfolk,au,-42.78,147.06,57.99,63.0,98.0,3.94,1603847122
74,teknaf,bd,20.86,92.31,77.67,86.0,1.0,3.53,1603847513
75,arraial do cabo,br,-22.97,-42.03,73.4,94.0,0.0,13.87,1603847237
76,hillcrest heights,us,38.83,-76.96,63.0,77.0,90.0,4.7,1603847515
77,mlonggo,id,-6.53,110.7,82.81,73.0,17.0,7.81,1603847377
78,gwadar,pk,25.12,62.33,71.35,61.0,0.0,5.53,1603847517
79,georgetown,sh,5.41,100.34,80.6,88.0,20.0,4.47,1603847245
80,albany,au,42.6,-73.97,46.0,77.0,100.0,1.7,1603847229
81,ushuaia,ar,-54.8,-68.3,44.6,39.0,75.0,11.41,1603847305
82,barrow,us,71.29,-156.79,30.2,74.0,75.0,25.28,1603847243
83,contamana,pe,-7.33,-75.02,85.03,59.0,28.0,3.74,1603847523
84,kaitangata,nz,-46.28,169.85,55.67,56.0,0.0,7.65,1603847231
86,port alfred,za,-33.59,26.89,63.39,87.0,85.0,13.33,1603847232
87,vanimo,pg,-2.67,141.3,86.81,62.0,62.0,1.28,1603847467
88,codrington,ag,-38.27,141.97,60.91,74.0,98.0,4.72,1603847228
89,muros,es,42.78,-9.06,57.99,88.0,100.0,1.01,1603847321
90,maningrida,au,-12.07,134.27,90.84,45.0,67.0,5.73,1603847284
91,hobart,au,-42.88,147.33,57.99,76.0,75.0,10.29,1603847186
92,ponta do sol,cv,32.67,-17.1,68.0,64.0,75.0,5.82,1603847259
93,mataura,pf,-46.19,168.86,57.99,70.0,95.0,7.0,1603847033
94,yerbogachen,ru,61.28,108.01,17.8,96.0,89.0,5.86,1603847267
95,vardo,no,70.37,31.11,42.37,94.0,100.0,9.51,1603846986
96,carutapera,br,-1.2,-46.02,77.72,85.0,71.0,6.02,1603847389
97,chapais,ca,49.78,-74.85,21.2,79.0,90.0,8.05,1603847255
98,upernavik,gl,72.79,-56.15,16.23,78.0,0.0,5.37,1603847233
99,tasiilaq,gl,65.61,-37.64,33.8,37.0,100.0,21.92,1603847222
100,sao joao da barra,br,-21.64,-41.05,74.55,90.0,100.0,14.63,1603847237
102,fukue,jp,32.69,128.84,66.2,82.0,75.0,5.82,1603847379
104,xuanhua,cn,40.61,115.04,45.3,43.0,99.0,3.89,1603847545
105,bredasdorp,za,-34.53,20.04,62.6,88.0,100.0,4.7,1603847295
106,samarinda,id,-0.5,117.15,84.56,66.0,100.0,2.19,1603847294
109,kismayo,so,-0.36,42.55,79.0,84.0,69.0,10.67,1603847551
110,sorland,no,67.67,12.69,46.74,66.0,100.0,8.03,1603847255
111,mildura,au,-34.2,142.15,70.0,52.0,0.0,5.82,1603847276
112,casablanca,ma,33.59,-7.62,62.01,93.0,0.0,5.82,1603847554
113,te anau,nz,-45.42,167.72,59.05,49.0,100.0,3.22,1603847359
114,atuona,pf,-9.8,-139.03,78.66,74.0,1.0,19.01,1603847229
115,darnah,ly,32.77,22.64,73.47,52.0,1.0,24.07,1603847443
116,kagadi,ug,0.96,30.8,61.93,100.0,66.0,2.91,1603847558
117,lompoc,us,34.64,-120.46,69.8,45.0,1.0,11.41,1603847222
118,bambous virieux,mu,-20.34,57.76,70.0,80.0,6.0,1.99,1603847225
119,honningsvag,no,70.98,25.97,41.43,71.0,100.0,9.1,1603846986
120,hun,ly,29.13,15.95,62.71,90.0,0.0,9.19,1603847563
121,thurso,gb,58.59,-3.53,44.6,93.0,100.0,5.82,1603847564
122,kedougou,sn,12.56,-12.17,75.07,40.0,60.0,2.55,1603847565
123,dauphin,ca,51.15,-100.05,37.4,91.0,90.0,5.82,1603847275
124,teguise,es,29.06,-13.56,69.8,68.0,75.0,11.41,1603847482
125,dudinka,ru,69.41,86.18,-4.92,85.0,0.0,5.82,1603847568
126,moscow,us,55.75,37.62,46.0,93.0,0.0,6.71,1603847326
127,itoman,jp,26.12,127.67,80.6,57.0,20.0,13.87,1603847277
128,saskylakh,ru,71.92,114.08,5.65,93.0,100.0,11.86,1603847233
129,shubarkuduk,kz,49.14,56.49,30.02,92.0,0.0,5.32,1603847472
131,khandyga,ru,62.67,135.6,15.62,95.0,100.0,2.42,1603847472
132,vestmannaeyjar,is,63.44,-20.27,41.22,70.0,30.0,24.79,1603847284
134,tigil,ru,57.8,158.67,41.38,66.0,59.0,3.89,1603847578
136,avsyunino,ru,55.57,39.12,35.6,100.0,90.0,6.71,1603847580
138,hervey bay,au,-25.3,152.85,82.0,73.0,75.0,10.29,1603847247
139,cherskiy,ru,68.75,161.3,14.59,93.0,100.0,8.57,1603847230
140,provideniya,ru,64.38,-173.3,32.0,95.0,75.0,6.71,1603847260
141,tessalit,ml,20.2,1.01,76.48,19.0,0.0,7.76,1603847486
142,ucluelet,ca,48.93,-125.55,53.6,100.0,90.0,5.82,1603847095
143,mineros,bo,-17.12,-63.23,78.8,69.0,0.0,10.29,1603847587
144,hasaki,jp,35.73,140.83,64.0,82.0,75.0,4.7,1603847264
145,kutum,sd,14.2,24.67,71.37,28.0,0.0,8.72,1603847340
146,kibungo,rw,-2.16,30.54,64.0,100.0,99.0,5.01,1603847590
147,longyan,cn,25.11,117.02,75.0,56.0,57.0,5.01,1603847592
148,half moon bay,us,37.46,-122.43,77.0,48.0,1.0,11.41,1603847016
149,teeli,ru,51.03,90.23,23.83,92.0,100.0,1.28,1603847594
150,yulara,au,-25.24,130.99,80.6,13.0,0.0,3.36,1603847265
153,narsaq,gl,60.92,-46.05,30.2,80.0,100.0,3.13,1603847257
154,chokurdakh,ru,70.63,147.92,12.81,97.0,100.0,3.8,1603847243
155,cabra,ph,37.47,-4.44,48.99,93.0,0.0,2.62,1603847600
156,olafsvik,is,64.89,-23.71,39.04,72.0,100.0,18.19,1603847329
157,druzhba,ua,52.04,33.95,44.53,71.0,0.0,9.33,1603847602
158,iskateley,ru,67.68,53.15,33.91,97.0,100.0,11.23,1603847265
159,tuatapere,nz,-46.13,167.68,57.99,70.0,100.0,7.0,1603847226
160,aykhal,ru,66.0,111.5,-11.56,88.0,75.0,3.69,1603847226
161,urumqi,cn,43.8,87.6,37.4,51.0,1.0,4.47,1603847607
162,fortuna,us,40.6,-124.16,57.99,66.0,1.0,6.93,1603846988
163,macae,br,-22.37,-41.79,73.4,94.0,0.0,13.87,1603847323
164,port lincoln,au,-34.73,135.87,63.59,59.0,0.0,7.81,1603847314
166,sibolga,id,1.74,98.78,80.98,68.0,28.0,1.48,1603847612
167,ixtapa,mx,20.7,-105.2,86.0,74.0,40.0,1.63,1603847250
168,kozhevnikovo,ru,56.26,83.97,36.01,82.0,46.0,16.89,1603847614
169,eureka,us,40.8,-124.16,57.0,77.0,0.0,4.32,1603847284
170,haapiti,pf,-17.57,-149.87,82.4,69.0,75.0,16.11,1603847616
171,kamaishi,jp,39.27,141.88,46.4,87.0,40.0,3.36,1603847480
172,borogontsy,ru,62.67,131.17,5.29,91.0,100.0,2.82,1603847619
173,banda aceh,id,5.56,95.32,81.66,70.0,98.0,13.31,1603847250
175,qaanaaq,gl,77.48,-69.36,12.09,81.0,99.0,12.8,1603847218
176,hami,cn,42.8,93.45,44.51,48.0,0.0,8.95,1603847221
177,bellary,in,15.15,76.93,68.86,70.0,7.0,1.97,1603847624
178,bahia blanca,ar,-38.72,-62.27,57.29,60.0,0.0,8.97,1603847625
179,zvishavane,zw,-20.33,30.07,65.89,50.0,0.0,2.68,1603847626
180,riyadh,sa,24.69,46.72,62.6,36.0,0.0,1.99,1603847337
181,ewa beach,us,21.32,-158.01,82.4,69.0,1.0,3.36,1603847344
182,kapaa,us,22.08,-159.32,82.4,69.0,75.0,5.82,1603847231
183,chara,ru,56.91,118.26,4.69,86.0,4.0,0.72,1603847348
184,stephenville,us,32.22,-98.2,36.0,93.0,90.0,8.05,1603847632
185,bousso,td,10.48,16.71,76.55,42.0,14.0,1.99,1603847633
186,deputatskiy,ru,69.3,139.9,-0.13,93.0,10.0,5.7,1603847483
187,belmonte,br,-15.86,-38.88,78.8,83.0,75.0,8.05,1603847239
188,nikolskoye,ru,59.7,30.79,52.0,87.0,75.0,8.95,1603847255
189,chuy,uy,-33.7,-53.46,62.31,95.0,100.0,13.73,1603847228
190,hilo,us,19.73,-155.09,80.6,74.0,90.0,9.17,1603847231
191,omboue,ga,-1.57,9.26,76.33,89.0,100.0,3.44,1603847639
192,gravdal,no,68.12,13.5,43.54,73.0,44.0,7.76,1603847640
193,binabalian,ph,16.42,119.93,82.9,75.0,94.0,5.97,1603847641
194,esperance,au,-33.87,121.9,68.0,77.0,92.0,16.11,1603847237
195,cidreira,br,-30.18,-50.21,63.07,87.0,100.0,11.72,1603847233
196,geraldton,au,-28.77,114.6,71.6,53.0,75.0,18.34,1603847203
197,kudahuvadhoo,mv,2.67,72.89,82.76,77.0,86.0,15.3,1603847646
198,nome,us,64.5,-165.41,34.0,86.0,90.0,6.93,1603847293
199,jamestown,sh,42.1,-79.24,41.0,100.0,90.0,2.19,1603847222
200,george,za,-33.96,22.46,57.2,87.0,0.0,3.36,1603847649
201,maceio,br,-9.67,-35.74,77.0,83.0,75.0,5.82,1603847341
202,puerto del rosario,es,28.5,-13.86,69.8,68.0,75.0,11.41,1603847495
203,ostrovnoy,ru,68.05,39.51,43.68,92.0,100.0,22.15,1603847274
204,nuuk,gl,64.18,-51.72,23.0,79.0,8.0,9.17,1603847653
206,athabasca,ca,54.72,-113.29,35.82,84.0,14.0,11.88,1603847656
207,kautokeino,no,69.01,23.04,26.47,96.0,100.0,4.52,1603847657
208,jardim,br,-21.48,-56.14,70.05,59.0,0.0,2.95,1603847658
209,kasumkent,ru,41.68,48.15,51.82,81.0,91.0,3.06,1603847659
210,bonoua,ci,5.27,-3.6,78.8,100.0,90.0,10.29,1603847660
211,margate,za,51.38,1.39,51.01,82.0,100.0,3.0,1603847661
212,nabire,id,-3.37,135.48,83.93,67.0,100.0,0.83,1603847479
213,sechura,pe,-5.56,-80.82,66.94,76.0,87.0,13.18,1603847124
214,ambon,id,-3.7,128.18,83.79,71.0,62.0,2.66,1603847325
216,cabo san lucas,mx,22.89,-109.91,75.0,69.0,34.0,13.0,1603847218
217,walvis bay,na,-22.96,14.51,59.0,82.0,100.0,4.7,1603847477
218,cap malheureux,mu,-19.98,57.61,70.0,80.0,0.0,3.0,1603847479
219,opuwo,na,-18.06,13.84,62.35,53.0,23.0,3.91,1603847670
220,luderitz,na,-26.65,15.16,56.68,79.0,0.0,10.51,1603847244
221,singaparna,id,-7.35,108.11,76.01,84.0,92.0,2.73,1603847672
222,pudozh,ru,61.81,36.53,47.25,85.0,100.0,10.89,1603847240
223,pevek,ru,69.7,170.31,20.07,97.0,100.0,12.33,1603847236
224,meulaboh,id,4.14,96.13,77.59,84.0,82.0,3.98,1603847435
225,richards bay,za,-28.78,32.04,73.06,80.0,0.0,15.99,1603847266
226,paciran,id,-6.88,112.38,82.85,73.0,100.0,7.4,1603847677
228,avera,pf,33.19,-82.53,73.4,94.0,90.0,4.7,1603847269
229,the valley,ai,18.22,-63.06,82.4,78.0,20.0,13.87,1603847455
230,navahrudak,by,53.6,25.83,49.46,95.0,0.0,10.18,1603847681
231,amli,no,20.28,73.02,73.49,56.0,1.0,3.89,1603847389
232,tucuman,ar,-26.82,-65.22,80.6,39.0,0.0,10.29,1603847442
233,isangel,vu,-19.55,169.27,79.88,68.0,16.0,15.66,1603847251
234,husavik,is,66.04,-17.34,37.4,64.0,90.0,8.05,1603847258
235,pacific grove,us,36.62,-121.92,73.4,16.0,1.0,8.05,1603847230
236,wad madani,sd,14.4,33.52,86.65,24.0,71.0,5.17,1603847688
237,kruisfontein,za,-34.0,24.73,59.0,96.0,0.0,6.64,1603847235
238,drabiv,ua,49.96,32.15,47.05,70.0,0.0,7.58,1603847690
239,komatipoort,za,-25.43,31.95,68.0,91.0,96.0,0.31,1603847691
240,caraz,pe,-9.05,-77.81,63.12,58.0,100.0,5.37,1603847594
241,sola,vu,-13.88,167.55,80.33,77.0,0.0,16.71,1603847482
242,touros,br,-5.2,-35.46,78.8,83.0,75.0,9.17,1603847470
244,muisne,ec,0.6,-80.03,74.12,88.0,100.0,11.56,1603847308
245,lavrentiya,ru,65.58,-171.0,30.13,90.0,71.0,8.81,1603847255
246,el campo,us,29.2,-96.27,55.0,93.0,90.0,11.41,1603847699
247,acajutla,sv,13.59,-89.83,71.01,100.0,95.0,1.99,1603847471
248,high rock,bs,26.62,-78.28,80.6,88.0,20.0,6.93,1603847268
249,gillette,us,44.29,-105.5,39.2,60.0,1.0,13.87,1603847702
250,mae hong son,th,19.3,97.97,74.5,78.0,100.0,1.28,1603847703
251,outram,nz,1.28,103.84,82.4,83.0,40.0,9.17,1603847705
252,baijiantan,cn,45.63,85.18,41.76,58.0,100.0,0.81,1603847706
253,torbay,ca,47.67,-52.73,39.0,100.0,90.0,10.29,1603847254
254,namibe,ao,-15.2,12.15,71.11,79.0,0.0,3.27,1603847238
256,filimonovo,ru,56.2,95.46,35.04,84.0,100.0,3.94,1603847710
257,simao,cn,22.79,100.97,68.59,72.0,33.0,0.94,1603847711
258,vostok,ru,46.49,135.88,34.34,98.0,100.0,1.86,1603847253
260,haines junction,ca,60.75,-137.51,29.95,95.0,100.0,2.26,1603847351
261,ust-tsilma,ru,65.44,52.15,36.91,96.0,100.0,6.69,1603847499
264,guane,cu,22.2,-84.09,77.95,90.0,100.0,8.03,1603847719
265,port arthur,us,38.8,121.27,55.4,54.0,0.0,2.24,1603847720
266,yumen,cn,40.28,97.2,38.59,67.0,91.0,5.28,1603847122
268,kalmunai,lk,7.42,81.82,79.02,80.0,2.0,6.35,1603847263
269,laguna,br,38.42,-121.42,73.4,18.0,1.0,4.7,1603847204
270,paso de los toros,uy,-32.82,-56.52,54.34,91.0,0.0,7.96,1603847726
271,balsas,br,-7.53,-46.04,77.31,75.0,30.0,5.59,1603847727
272,havre-saint-pierre,ca,50.23,-63.6,30.2,74.0,1.0,11.41,1603847471
274,namwala,zm,-15.75,26.44,68.61,38.0,0.0,5.12,1603847730
275,skibotn,no,69.39,20.27,35.6,80.0,75.0,5.82,1603847731
276,barahona,do,18.21,-71.1,80.71,77.0,96.0,9.93,1603847733
277,asau,tv,46.43,26.4,50.0,98.0,58.0,1.54,1603847464
278,zlitan,ly,32.47,14.57,67.48,66.0,13.0,15.86,1603847735
280,mayo,ca,38.89,-76.51,60.8,77.0,90.0,6.93,1603847192
281,caconda,ao,-13.73,15.07,61.3,91.0,23.0,6.98,1603847465
282,hualmay,pe,-11.1,-77.61,63.48,86.0,98.0,7.78,1603847265
283,port hedland,au,-20.32,118.57,80.6,65.0,75.0,4.7,1603847233
284,kijang,id,35.24,129.21,59.0,38.0,100.0,4.7,1603847272
285,kiunga,pg,-6.12,141.29,78.91,83.0,100.0,2.26,1603847257
286,shache,cn,38.42,77.24,35.62,76.0,100.0,0.29,1603847744
287,port hardy,ca,50.7,-127.42,48.2,93.0,90.0,6.93,1603847290
289,shimoda,jp,34.67,138.95,64.4,77.0,75.0,9.17,1603847747
290,vao,nc,-22.67,167.48,73.22,82.0,100.0,18.48,1603847268
291,okhotsk,ru,59.38,143.3,30.78,81.0,0.0,7.02,1603847473
292,tiksi,ru,71.69,128.87,-3.21,90.0,2.0,12.73,1603847265
293,clyde river,ca,70.47,-68.59,8.6,71.0,1.0,6.93,1603847240
294,kyrylivka,ua,46.38,35.37,58.87,81.0,0.0,17.96,1603847753
295,atambua,id,-9.11,124.89,84.42,59.0,96.0,0.74,1603847248
296,hirara,jp,24.8,125.28,80.6,74.0,20.0,13.87,1603847755
297,antalaha,mg,-14.9,50.28,69.28,88.0,1.0,6.33,1603847756
298,flinders,au,-34.58,150.86,66.99,72.0,98.0,3.0,1603847264
299,luganville,vu,-15.53,167.17,82.4,74.0,75.0,8.05,1603847758
300,norman wells,ca,65.28,-126.83,15.8,85.0,20.0,5.82,1603847258
302,kavieng,pg,-2.57,150.8,84.63,66.0,82.0,2.48,1603847242
303,wilmington,us,34.23,-77.94,68.0,88.0,1.0,3.29,1603847456
304,el alto,pe,-4.27,-81.21,63.16,91.0,99.0,14.79,1603847764
305,sitka,us,57.05,-135.33,46.4,87.0,75.0,8.05,1603847043
306,camalu,mx,30.85,-116.07,64.0,36.0,0.0,9.37,1603847766
307,benguela,ao,-12.58,13.41,74.1,81.0,14.0,4.94,1603847767
308,strezhevoy,ru,60.73,77.59,10.4,85.0,20.0,6.71,1603847768
309,mehamn,no,71.04,27.85,35.74,83.0,100.0,7.31,1603847769
310,severo-kurilsk,ru,50.68,156.12,45.37,77.0,0.0,5.26,1603847241
311,nelson bay,au,-32.72,152.15,64.99,77.0,75.0,8.05,1603847548
312,guerrero negro,mx,27.98,-114.06,66.52,27.0,0.0,19.51,1603847295
313,airai,pw,-8.93,125.41,72.7,72.0,29.0,3.0,1603847256
314,maniitsoq,gl,65.42,-52.9,20.7,86.0,0.0,7.2,1603847249
315,plettenberg bay,za,-34.05,23.37,61.18,65.0,100.0,5.61,1603847775
316,ancud,cl,-41.87,-73.82,48.0,93.0,90.0,12.75,1603847253
317,morrope,pe,-6.54,-80.01,66.0,79.0,78.0,3.0,1603847778
318,monte alto,br,-21.26,-48.5,72.23,72.0,0.0,6.04,1603847779
319,lorengau,pg,-2.02,147.27,86.32,63.0,77.0,1.88,1603847234
320,beidao,cn,34.57,105.89,46.72,68.0,100.0,1.1,1603847781
321,mecca,sa,21.43,39.83,72.28,68.0,0.0,0.87,1603847228
322,ingham,au,42.6,-84.38,36.0,100.0,90.0,6.29,1603847783
323,nador,ma,35.17,-2.93,57.2,54.0,0.0,2.1,1603847784
324,khorixas,na,-20.37,14.97,72.39,21.0,97.0,7.16,1603847251
325,karratha,au,-20.74,116.85,80.2,57.0,18.0,9.95,1603847269
326,sao filipe,cv,14.9,-24.5,80.76,74.0,60.0,4.25,1603847254
327,mackay,au,-21.15,149.2,86.0,54.0,25.0,12.75,1603847249
328,inhambane,mz,-23.86,35.38,71.82,89.0,2.0,7.11,1603847790
329,yarim,ye,14.3,44.38,44.06,50.0,0.0,5.23,1603847791
330,kindersley,ca,51.47,-109.17,50.0,74.0,90.0,21.92,1603847703
332,mount gambier,au,-37.83,140.77,62.6,59.0,0.0,2.24,1603847245
333,san cristobal,ec,7.77,-72.22,67.44,92.0,92.0,1.59,1603847098
334,saldanha,za,-33.01,17.94,59.0,87.0,100.0,2.24,1603847270
335,shikhazany,ru,55.56,47.39,30.2,86.0,0.0,6.71,1603847797
336,pervomayskoye,ru,43.92,46.71,55.35,70.0,0.0,17.81,1603847798
337,sao miguel do tapuio,br,-5.5,-41.32,75.74,80.0,100.0,1.77,1603847799
338,umm lajj,sa,25.02,37.27,84.85,31.0,0.0,7.05,1603847802
339,raudeberg,no,61.99,5.14,46.99,79.0,76.0,13.4,1603847470
340,saint george,bm,37.1,-113.58,60.8,9.0,1.0,4.97,1603847223
341,kirkwall,gb,58.98,-2.96,44.6,93.0,100.0,10.29,1603847805
342,west wendover,us,40.74,-114.07,48.2,29.0,1.0,6.93,1603847806
343,oro valley,us,32.39,-110.97,54.0,40.0,0.0,3.0,1603847807
344,castro,cl,-24.79,-50.01,59.59,67.0,0.0,4.5,1603847229
345,pemba,mz,-12.97,40.52,77.0,88.0,20.0,3.36,1603847809
346,hwange,zw,-18.37,26.5,74.07,31.0,0.0,4.97,1603847810
347,anloga,gh,5.79,0.9,80.6,88.0,75.0,8.05,1603847812
348,saint anthony,ca,45.02,-93.22,32.0,92.0,40.0,11.41,1603847190
349,dano,bf,11.15,-3.07,78.1,34.0,79.0,2.59,1603847814
350,maragogi,br,-9.01,-35.22,76.51,81.0,89.0,10.29,1603847815
351,cusuna,hn,15.85,-85.23,78.62,84.0,100.0,8.01,1603847816
352,christchurch,nz,-43.53,172.63,59.0,62.0,66.0,13.87,1603847459
354,bayangol,ru,50.7,103.47,26.4,86.0,29.0,2.44,1603847819
355,puerto escondido,mx,15.85,-97.07,78.8,69.0,90.0,4.7,1603847821
356,broken hill,au,-31.95,141.43,62.6,63.0,0.0,8.05,1603847257
357,wagga wagga,au,-35.12,147.37,70.0,59.0,75.0,11.41,1603847823
358,neuquen,ar,-38.95,-68.06,59.0,33.0,0.0,11.41,1603847824
359,vysokogornyy,ru,50.12,139.15,37.18,78.0,60.0,2.86,1603847684
361,lata,sb,40.16,-8.33,61.0,94.0,100.0,5.53,1603847279
362,bethel,us,41.37,-73.41,50.0,75.0,100.0,3.65,1603847378
363,najran,sa,17.49,44.13,60.8,25.0,0.0,4.7,1603847404
364,awbari,ly,26.59,12.78,66.49,27.0,0.0,8.9,1603847494
365,lufilufi,ws,-13.87,-171.6,86.0,74.0,75.0,10.29,1603847831
366,cayenne,gf,4.93,-52.33,82.4,78.0,20.0,3.36,1603847250
367,havoysund,no,71.0,24.66,32.0,75.0,0.0,12.75,1603847834
368,elizabeth city,us,36.29,-76.25,66.2,93.0,90.0,3.36,1603847835
369,harper,lr,4.38,-7.72,78.04,87.0,43.0,6.62,1603847294
370,nisia floresta,br,-6.09,-35.21,78.8,78.0,75.0,9.17,1603847837
371,kahului,us,20.89,-156.47,84.2,66.0,40.0,8.05,1603847291
372,poltavka,ru,54.37,71.76,25.77,96.0,100.0,19.17,1603847839
373,hambantota,lk,6.12,81.12,78.78,81.0,81.0,6.53,1603847840
374,asosa,et,10.07,34.53,63.57,76.0,0.0,4.05,1603847841
375,kipen,ru,59.68,29.85,52.0,87.0,75.0,8.95,1603847842
376,college,us,64.86,-147.8,28.4,92.0,90.0,4.23,1603847843
377,mahebourg,mu,-20.41,57.7,70.0,80.0,4.0,3.0,1603847845
378,kuytun,cn,54.34,101.5,28.56,96.0,1.0,7.72,1603847846
379,tiznit,ma,29.58,-9.5,62.02,61.0,100.0,1.19,1603847847
380,tazovskiy,ru,67.47,78.7,-3.64,89.0,0.0,8.21,1603847848
382,constitucion,mx,-35.33,-72.42,49.32,80.0,0.0,8.25,1603847850
383,fayaoue,nc,-20.65,166.53,76.75,77.0,22.0,16.22,1603847851
384,faya,td,18.39,42.45,55.4,27.0,0.0,5.01,1603847852
385,frontignan,fr,43.45,3.75,57.2,71.0,90.0,5.82,1603847853
386,sioux lookout,ca,50.1,-91.92,26.6,92.0,90.0,12.75,1603847855
387,eenhana,na,-17.47,16.33,84.2,18.0,88.0,5.82,1603847856
388,san patricio,mx,28.02,-97.52,53.6,81.0,90.0,14.99,1603847857
389,bambanglipuro,id,-7.95,110.28,81.84,74.0,72.0,7.96,1603847858
390,conde,br,-7.26,-34.91,78.8,78.0,20.0,6.93,1603847860
392,clyde,nz,41.3,-82.98,42.01,94.0,100.0,2.44,1603847862
393,wuning,cn,29.26,120.23,65.84,76.0,22.0,3.87,1603847863
394,plouzane,fr,48.38,-4.62,55.4,81.0,100.0,17.22,1603847864
395,taoudenni,ml,22.68,-3.98,81.52,17.0,0.0,6.58,1603847865
396,jiayuguan,cn,39.82,98.3,39.6,65.0,0.0,6.06,1603847866
397,victoria,sc,22.29,114.16,77.0,73.0,100.0,1.99,1603847090
398,pemangkat,id,1.17,108.97,80.64,78.0,78.0,8.99,1603847680
400,souillac,mu,-20.52,57.52,70.0,80.0,6.0,3.0,1603847871
401,ilulissat,gl,69.22,-51.1,14.0,61.0,86.0,3.09,1603847872
402,dinanagar,in,32.15,75.47,58.78,35.0,0.0,3.44,1603847873
403,tautira,pf,-17.73,-149.15,82.4,69.0,75.0,16.11,1603847874
404,anchorage,us,61.22,-149.9,35.01,80.0,90.0,3.6,1603847682
406,pertuis,fr,43.69,5.5,48.2,93.0,0.0,4.21,1603847877
407,diego de almagro,cl,-26.37,-70.05,53.73,58.0,0.0,1.16,1603847878
408,brownfield,us,33.18,-102.27,30.2,97.0,90.0,10.65,1603847714
409,faanui,pf,-16.48,-151.75,79.81,82.0,100.0,19.57,1603847881
410,san jeronimo,mx,-11.95,-75.28,53.06,66.0,100.0,4.56,1603847882
411,fairbanks,us,64.84,-147.72,28.4,92.0,90.0,4.16,1603847472
412,belaya gora,ru,68.53,146.42,6.57,94.0,3.0,5.26,1603847884
413,broome,au,42.25,-75.83,45.0,87.0,90.0,4.7,1603847885
414,labuhan,id,-6.88,112.21,82.45,75.0,100.0,9.4,1603847494
415,kysyl-syr,ru,63.9,122.76,4.91,91.0,100.0,1.57,1603847480
416,dongsheng,cn,39.82,109.98,38.88,53.0,100.0,3.11,1603847888
417,coquimbo,cl,-29.95,-71.34,53.6,87.0,0.0,5.82,1603847406
418,puerto leguizamo,co,-0.19,-74.78,81.05,69.0,92.0,2.17,1603847890
420,paita,pe,-5.09,-81.11,63.91,87.0,54.0,13.67,1603847435
421,saint-joseph,re,-21.37,55.62,69.8,64.0,0.0,5.82,1603847894
422,biryusinsk,ru,55.96,97.82,33.85,89.0,100.0,7.54,1603847895
423,hamtic,ph,10.7,121.98,85.98,69.0,16.0,4.09,1603847896
424,bugene,tz,-1.59,31.14,59.14,92.0,81.0,0.43,1603847897
425,siteki,sz,-26.45,31.95,63.07,100.0,3.0,3.65,1603847752
426,great yarmouth,gb,52.61,1.73,46.0,97.0,0.0,1.99,1603847899
427,mossendjo,cg,-2.95,12.73,71.22,99.0,100.0,2.73,1603847900
428,gandzak,am,40.31,45.11,41.0,60.0,100.0,0.76,1603847901
429,zhob,pk,31.34,69.45,49.98,39.0,0.0,1.39,1603847902
430,nouadhibou,mr,20.93,-17.03,73.4,64.0,100.0,18.34,1603847903
431,gizo,sb,-8.1,156.84,84.79,71.0,100.0,6.31,1603847483
432,gympie,au,-26.19,152.66,71.01,85.0,60.0,1.99,1603847800
433,ankang,cn,32.68,109.02,54.48,84.0,100.0,1.52,1603847907
434,hamilton,us,39.18,-84.53,51.8,87.0,90.0,3.4,1603847908
435,didwana,in,27.4,74.57,60.73,30.0,0.0,1.99,1603847909
436,snina,sk,48.99,22.15,45.0,93.0,0.0,2.19,1603847910
437,mogadishu,so,2.04,45.34,79.77,81.0,93.0,7.05,1603847911
438,bowen,au,-20.02,148.23,87.8,45.0,75.0,9.17,1603847912
439,grand-santi,gf,4.25,-54.38,77.29,87.0,99.0,3.78,1603847914
440,port augusta,au,-32.5,137.77,64.99,68.0,0.0,5.82,1603847492
441,envira,br,-7.3,-70.22,74.75,85.0,100.0,0.54,1603847916
442,axim,gh,4.87,-2.24,78.42,86.0,100.0,7.16,1603847481
443,verkhnevilyuysk,ru,63.45,120.32,6.73,91.0,100.0,2.3,1603847918
444,sinazongwe,zm,-17.26,27.46,77.95,47.0,1.0,5.28,1603847919
445,solnechnyy,ru,50.72,136.63,36.43,82.0,100.0,2.82,1603847920
446,yokadouma,cm,3.52,15.05,69.42,95.0,98.0,0.51,1603847921
447,komsomolskiy,ru,40.43,71.72,50.0,53.0,100.0,2.24,1603847922
448,bosilegrad,rs,42.5,22.47,47.21,77.0,76.0,1.14,1603847924
449,ballina,au,-28.87,153.57,73.4,73.0,75.0,11.41,1603847925
450,lagoa,pt,39.05,-27.98,62.55,61.0,100.0,7.02,1603847926
451,nanortalik,gl,60.14,-45.24,30.45,90.0,100.0,3.33,1603847927
452,linjiang,cn,41.81,126.91,43.81,53.0,0.0,5.01,1603847928
454,zaria,ng,11.11,7.72,73.22,28.0,100.0,3.18,1603847930
455,portland,au,45.52,-122.68,55.99,73.0,0.0,1.3,1603847580
456,winnemucca,us,40.97,-117.74,51.8,25.0,1.0,4.7,1603847932
457,guantanamo,cu,20.14,-75.21,84.2,70.0,40.0,10.29,1603847831
458,prado,br,-17.34,-39.22,76.68,92.0,100.0,11.77,1603847934
459,sao joao do piaui,br,-8.36,-42.25,74.93,84.0,100.0,0.83,1603847935
460,puerto baquerizo moreno,ec,-0.9,-89.6,67.98,87.0,100.0,9.69,1603847936
461,biscarrosse,fr,44.39,-1.17,57.2,100.0,75.0,8.05,1603847883
462,kangaatsiaq,gl,68.31,-53.46,23.2,93.0,99.0,8.39,1603847939
463,bani walid,ly,31.76,13.99,61.56,68.0,0.0,16.24,1603847940
464,dingle,ie,11.0,122.67,83.52,76.0,41.0,2.13,1603847941
465,ullapool,gb,57.9,-5.16,43.0,64.0,100.0,1.01,1603847420
466,adjumani,ug,3.38,31.79,67.05,94.0,6.0,1.07,1603847943
467,terenos,br,-20.44,-54.86,73.4,64.0,0.0,1.12,1603847944
468,erzin,ru,36.96,36.2,73.99,55.0,57.0,3.6,1603847945
469,flin flon,ca,54.77,-101.86,26.11,98.0,100.0,5.84,1603847947
470,beringovskiy,ru,63.05,179.32,27.75,92.0,65.0,12.5,1603847948
471,kisangani,cd,0.52,25.2,72.0,98.0,100.0,2.77,1603847949
472,miles city,us,46.41,-105.84,39.2,64.0,1.0,5.82,1603847950
473,necochea,ar,-38.55,-58.74,57.0,79.0,90.0,7.0,1603847951
474,klaksvik,fo,62.23,-6.59,44.6,81.0,100.0,9.17,1603847952
475,leningradskiy,ru,69.38,178.42,19.2,91.0,0.0,18.66,1603847953
476,turayf,sa,31.67,38.66,68.0,22.0,0.0,13.87,1603847955
477,dafeng,cn,23.45,108.59,73.31,63.0,26.0,9.13,1603847956
478,takoradi,gh,4.88,-1.76,77.9,87.0,61.0,6.62,1603847957
479,tura,ru,25.52,90.22,69.91,87.0,0.0,3.74,1603847958
480,naze,jp,28.37,129.48,78.8,69.0,40.0,11.41,1603847959
481,zhigansk,ru,66.77,123.37,-6.84,91.0,61.0,2.55,1603847960
482,wonthaggi,au,-38.6,145.59,68.0,72.0,50.0,8.99,1603847777
483,thompson,ca,55.74,-97.86,21.2,67.0,75.0,10.29,1603847962
484,oktyabrskoye,ru,43.06,44.74,51.8,93.0,9.0,6.71,1603847963
485,quatre cocos,mu,-20.21,57.76,70.0,80.0,7.0,3.0,1603847964
486,calbuco,cl,-41.77,-73.13,46.4,87.0,90.0,13.87,1603847966
487,pervomayskiy,ru,53.25,40.29,34.0,76.0,96.0,9.8,1603847967
488,shenzhen,cn,22.55,114.07,78.01,75.0,100.0,1.01,1603847874
489,verkhoyansk,ru,67.54,133.38,4.42,92.0,85.0,1.99,1603847969
490,lucea,jm,18.45,-78.17,84.2,79.0,75.0,6.93,1603847458
491,basco,ph,20.45,121.97,81.68,83.0,100.0,23.09,1603847971
492,rio gallegos,ar,-51.62,-69.22,50.0,31.0,75.0,8.05,1603847788
493,oriximina,br,-1.77,-55.87,80.85,79.0,100.0,1.5,1603847491
494,puerto cabezas,ni,14.04,-83.39,79.63,85.0,100.0,3.67,1603847974
495,yamada,jp,39.47,141.95,59.47,51.0,0.0,2.24,1603847975
496,kaeo,nz,-35.1,173.78,73.0,69.0,59.0,8.99,1603847976
497,batemans bay,au,-35.72,150.18,62.01,79.0,76.0,6.31,1603847977
498,morondava,mg,-20.28,44.28,73.76,58.0,0.0,3.58,1603847979
499,bilibino,ru,68.05,166.44,5.25,91.0,100.0,1.77,1603847308
500,anavra,gr,39.2,22.08,60.01,60.0,100.0,21.99,1603847981
501,youkounkoun,gn,12.53,-13.13,74.1,41.0,97.0,2.21,1603847982
503,los llanos de aridane,es,28.66,-17.92,71.6,64.0,90.0,9.17,1603847344
504,tukrah,ly,32.53,20.58,70.57,69.0,76.0,17.54,1603847985
505,athy,ie,52.99,-6.98,45.0,86.0,6.0,17.0,1603847986
506,dongdu,cn,35.85,117.7,56.19,50.0,100.0,5.37,1603847987
507,whitianga,nz,-36.83,175.7,70.0,77.0,100.0,5.99,1603847989
508,klyuchi,ru,52.27,79.17,33.01,88.0,98.0,14.18,1603847933
509,cubuk,tr,40.24,33.03,62.01,57.0,0.0,2.24,1603847991
511,namalenga,tz,-10.95,39.1,67.08,93.0,2.0,2.39,1603847993
512,poopo,bo,-18.37,-66.97,52.84,37.0,0.0,12.46,1603847994
513,porto seguro,br,-16.45,-39.06,78.8,83.0,75.0,8.05,1603847995
514,farap,tm,39.17,63.61,39.16,67.0,0.0,10.02,1603847996
515,arman,ru,59.7,150.17,34.29,71.0,0.0,3.83,1603847997
516,raga,sd,8.46,25.68,73.38,78.0,97.0,2.89,1603847999
517,peski,ru,55.22,38.76,39.2,100.0,52.0,6.71,1603848000
518,longonjo,ao,-12.91,15.25,66.31,80.0,52.0,3.85,1603848001
519,vierzon,fr,47.21,2.06,55.4,93.0,90.0,6.93,1603848002
520,san andres,co,12.58,-81.7,84.2,83.0,40.0,6.93,1603847901
521,galesong,id,-5.32,119.37,82.4,74.0,20.0,2.24,1603848004
522,davila,ph,18.47,120.58,82.4,88.0,75.0,3.36,1603848005
524,marawi,sd,8.0,124.29,84.0,75.0,42.0,4.0,1603847997
525,westport,ie,41.14,-73.36,55.4,54.0,90.0,4.7,1603847761
527,smithers,ca,54.78,-127.17,41.0,93.0,90.0,2.24,1603847363
528,harer,et,9.31,42.13,52.74,40.0,92.0,2.86,1603848012
529,samarai,pg,-10.62,150.67,82.98,78.0,2.0,9.78,1603848013
530,casa grande,us,32.88,-111.76,61.0,26.0,1.0,5.82,1603848013
531,nyrob,ru,60.73,56.72,30.81,98.0,100.0,7.11,1603848015
532,catamarca,ar,-28.47,-65.79,64.0,56.0,0.0,3.0,1603848016
533,orlovskiy,ru,46.87,42.06,47.53,74.0,100.0,19.46,1603848017
534,redcar,gb,54.62,-1.06,46.0,81.0,36.0,17.0,1603848013
535,barsovo,ru,61.17,73.17,8.6,92.0,0.0,8.95,1603848019
536,luancheng,cn,37.88,114.65,46.4,61.0,100.0,2.24,1603848021
537,la baule-escoublac,fr,47.29,-2.36,55.0,87.0,20.0,9.17,1603848022
538,shahr-e kord,ir,32.33,50.86,35.6,34.0,0.0,4.7,1603848023
539,los reyes,mx,19.35,-98.97,68.0,49.0,75.0,11.41,1603848024
540,lazaro cardenas,mx,17.96,-102.2,80.67,85.0,36.0,7.56,1603848025
541,slave lake,ca,55.28,-114.77,37.4,84.0,90.0,12.75,1603848026
542,buala,sb,-8.14,159.59,86.02,70.0,41.0,6.91,1603847489
545,doka,sd,13.52,35.77,74.43,41.0,1.0,0.76,1603848030
546,manubul,ph,5.47,120.8,83.7,82.0,2.0,10.54,1603848032
547,jiwani,pk,25.05,61.74,73.58,62.0,0.0,6.93,1603848033
548,mbandaka,cd,0.05,18.26,71.38,97.0,100.0,2.59,1603848034
549,calvillo,mx,21.85,-102.72,71.6,28.0,40.0,6.93,1603848035
550,santa cruz,cr,-17.8,-63.17,78.8,69.0,0.0,10.29,1603847913
551,namatanai,pg,-3.67,152.43,86.67,64.0,16.0,1.61,1603848037
552,nuevo progreso,mx,23.17,-97.95,75.0,62.0,100.0,1.01,1603848039
553,atar,mr,20.52,-13.05,82.74,22.0,6.0,10.04,1603848040
555,komsomolets,kz,53.75,62.07,21.51,96.0,56.0,7.94,1603848042
556,cefalu,it,38.04,14.02,61.0,66.0,24.0,11.01,1603847479
557,huntington,us,38.42,-82.45,59.0,82.0,75.0,4.7,1603848044
558,acapetahua,mx,15.28,-92.7,78.8,94.0,75.0,5.82,1603848045
559,west plains,us,36.73,-91.85,43.0,87.0,90.0,5.82,1603847882
560,saint-francois,gp,46.42,3.91,53.6,81.0,90.0,8.05,1603848047
561,luanda,ao,-8.84,13.23,75.2,94.0,75.0,5.82,1603848048
562,martapura,id,-3.42,114.85,83.3,75.0,96.0,1.57,1603848050
563,pedasi,pa,7.53,-80.03,79.81,87.0,0.0,8.9,1603848051
564,brunswick,us,41.24,-81.84,44.6,93.0,90.0,4.7,1603847494
565,durant,us,33.99,-96.37,39.0,96.0,100.0,5.01,1603848043
566,howard springs,au,-12.5,131.05,87.8,58.0,40.0,3.36,1603848054
567,ulladulla,au,-35.35,150.47,63.0,77.0,75.0,8.05,1603848055
568,hue,vn,16.47,107.6,75.2,94.0,75.0,23.04,1603848056
569,evensk,ru,61.95,159.23,28.71,80.0,0.0,10.07,1603847472
570,la asuncion,ve,11.03,-63.86,80.26,85.0,94.0,11.9,1603848058
572,khovu-aksy,ru,51.13,93.6,26.64,86.0,0.0,6.89,1603848061
573,hofn,is,64.25,-15.21,38.44,83.0,100.0,21.7,1603848052
574,burriana,es,39.89,-0.09,57.0,59.0,100.0,3.94,1603848063
575,porto novo,cv,6.5,2.6,80.6,88.0,40.0,11.41,1603847325
576,jalu,ly,29.03,21.55,70.16,43.0,0.0,10.22,1603848037
577,requena,es,39.49,-1.1,46.0,71.0,34.0,6.2,1603848066
578,danjiangkou,cn,32.54,111.51,51.01,42.0,100.0,1.01,1603847792
579,longyearbyen,sj,78.22,15.64,30.2,80.0,75.0,3.36,1603848045
580,warmbad,na,-28.45,18.73,58.96,33.0,0.0,6.02,1603848069
581,albion,us,42.24,-84.75,37.4,93.0,90.0,2.51,1603848070
583,vilyuysk,ru,63.76,121.62,4.05,92.0,100.0,1.7,1603848072
584,jacareacanga,br,-6.22,-57.75,78.04,71.0,2.0,1.9,1603848074
585,cairns,au,-16.92,145.77,86.0,55.0,40.0,3.36,1603847900
586,ketchikan,us,55.34,-131.65,46.4,93.0,40.0,3.36,1603847357
587,kuala terengganu,my,5.33,103.14,80.67,79.0,100.0,4.34,1603848077
588,aswan,eg,24.09,32.91,76.46,39.0,0.0,7.83,1603848078
590,waipawa,nz,-41.41,175.52,60.8,72.0,99.0,16.11,1603848080
591,corbelia,br,-24.8,-53.31,62.38,65.0,0.0,3.91,1603848081
592,portovelo,ec,-3.72,-79.62,70.95,74.0,100.0,1.79,1603848082
593,tilichiki,ru,60.47,166.1,26.46,89.0,7.0,9.78,1603848039
594,darhan,mn,49.49,105.92,32.34,84.0,0.0,5.99,1603848085
595,henties bay,na,-22.12,14.28,59.0,88.0,97.0,6.24,1603848070
